[
  {
    "Pais": {
"identity": 0,
"labels": [
        "pais"
      ],
"properties": {
"name": "Guatemala",
"latitude": 15.6093419,
"longitude": -90.5600285
      }
    },
    "Departamento": {
"identity": 112,
"labels": [
        "Departamento"
      ],
"properties": {
"elevation": 906,
"extencionKM": 3219,
"name": "Jutiapa",
"creacion": "1852-05-08",
"latitude": 14.2927749,
"longitude": -89.8978752
      }
    }
  },
  {
    "Pais": {
"identity": 0,
"labels": [
        "pais"
      ],
"properties": {
"name": "Guatemala",
"latitude": 15.6093419,
"longitude": -90.5600285
      }
    },
    "Departamento": {
"identity": 109,
"labels": [
        "Departamento"
      ],
"properties": {
"elevation": 1362,
"name": "Jalapa",
"creacion": "1873-11-26",
"extensionKM": 2063,
"latitude": 14.6284141,
"longitude": -89.9928038
      }
    }
  },
  {
    "Pais": {
"identity": 0,
"labels": [
        "pais"
      ],
"properties": {
"name": "Guatemala",
"latitude": 15.6093419,
"longitude": -90.5600285
      }
    },
    "Departamento": {
"identity": 106,
"labels": [
        "Departamento"
      ],
"properties": {
"elevation": 424,
"name": "Chiquimula",
"creacion": "1825-11-04",
"extensionKM": 2376,
"latitude": 14.7967799,
"longitude": -89.5481928
      }
    }
  },
  {
    "Pais": {
"identity": 0,
"labels": [
        "pais"
      ],
"properties": {
"name": "Guatemala",
"latitude": 15.6093419,
"longitude": -90.5600285
      }
    },
    "Departamento": {
"identity": 103,
"labels": [
        "Departamento"
      ],
"properties": {
"elevation": 185,
"name": "Zacapa",
"creacion": "1871-11-10",
"extensionKM": 2690,
"latitude": 14.9670811,
"longitude": -89.5326156
      }
    }
  },
  {
    "Pais": {
"identity": 0,
"labels": [
        "pais"
      ],
"properties": {
"name": "Guatemala",
"latitude": 15.6093419,
"longitude": -90.5600285
      }
    },
    "Departamento": {
"identity": 96,
"labels": [
        "Departamento"
      ],
"properties": {
"elevation": 0.67,
"name": "Izabal",
"creacion": "1866-05-08",
"extensionKM": 9038,
"latitude": 15.518099,
"longitude": -88.72509
      }
    }
  },
  {
    "Pais": {
"identity": 0,
"labels": [
        "pais"
      ],
"properties": {
"name": "Guatemala",
"latitude": 15.6093419,
"longitude": -90.5600285
      }
    },
    "Departamento": {
"identity": 93,
"labels": [
        "Departamento"
      ],
"properties": {
"elevation": 127,
"name": "Peten",
"creacion": "1866-05-08",
"extensionKM": 35854,
"latitude": 16.831011,
"longitude": -90.047225
      }
    }
  },
  {
    "Pais": {
"identity": 0,
"labels": [
        "pais"
      ],
"properties": {
"name": "Guatemala",
"latitude": 15.6093419,
"longitude": -90.5600285
      }
    },
    "Departamento": {
"identity": 81,
"labels": [
        "Departamento"
      ],
"properties": {
"elevation": 1902,
"name": "Huehuetenango",
"creacion": "1839-11-02",
"extensionKM": 7403,
"latitude": 15.3212325,
"longitude": -91.4687443
      }
    }
  },
  {
    "Pais": {
"identity": 0,
"labels": [
        "pais"
      ],
"properties": {
"name": "Guatemala",
"latitude": 15.6093419,
"longitude": -90.5600285
      }
    },
    "Departamento": {
"identity": 90,
"labels": [
        "Departamento"
      ],
"properties": {
"elevation": 1317,
"name": "Alta Verapaz",
"creacion": "1877-05-04",
"extensionKM": 8686,
"latitude": 15.596925,
"longitude": -90.090996
      }
    }
  },
  {
    "Pais": {
"identity": 0,
"labels": [
        "pais"
      ],
"properties": {
"name": "Guatemala",
"latitude": 15.6093419,
"longitude": -90.5600285
      }
    },
    "Departamento": {
"identity": 87,
"labels": [
        "Departamento"
      ],
"properties": {
"elevation": 940,
"name": "Baja Verapaz",
"creacion": "1877-05-04",
"extensionKM": 3124,
"latitude": 15.111707,
"longitude": -90.412208
      }
    }
  },
  {
    "Pais": {
"identity": 0,
"labels": [
        "pais"
      ],
"properties": {
"name": "Guatemala",
"latitude": 15.6093419,
"longitude": -90.5600285
      }
    },
    "Departamento": {
"identity": 84,
"labels": [
        "Departamento"
      ],
"properties": {
"elevation": 2021,
"name": "El Quiche",
"creacion": "1872-08-12",
"extensionKM": 8378,
"latitude": 15.4287001,
"longitude": -91.0073168
      }
    }
  },
  {
    "Pais": {
"identity": 0,
"labels": [
        "pais"
      ],
"properties": {
"name": "Guatemala",
"latitude": 15.6093419,
"longitude": -90.5600285
      }
    },
    "Departamento": {
"identity": 78,
"labels": [
        "Departamento"
      ],
"properties": {
"elevation": 2398,
"name": "San Marcos",
"creacion": "1866-05-08",
"extensionKM": 3701,
"latitude": 14.9934677,
"longitude": -91.8368271
      }
    }
  },
  {
    "Pais": {
"identity": 0,
"labels": [
        "pais"
      ],
"properties": {
"name": "Guatemala",
"latitude": 15.6093419,
"longitude": -90.5600285
      }
    },
    "Departamento": {
"identity": 52,
"labels": [
        "Departamento"
      ],
"properties": {
"elevation": 371,
"name": "Suchitepequez",
"creacion": "1825-11-04",
"extensionKM": 2510,
"latitude": 14.376171,
"longitude": -91.364829
      }
    }
  },
  {
    "Pais": {
"identity": 0,
"labels": [
        "pais"
      ],
"properties": {
"name": "Guatemala",
"latitude": 15.6093419,
"longitude": -90.5600285
      }
    },
    "Departamento": {
"identity": 74,
"labels": [
        "Departamento"
      ],
"properties": {
"elevation": 239,
"name": "Retalhuleu",
"creacion": "1877-10-16",
"extensionKM": 1856,
"latitude": 14.5382824,
"longitude": -91.6824791
      }
    }
  },
  {
    "Pais": {
"identity": 0,
"labels": [
        "pais"
      ],
"properties": {
"name": "Guatemala",
"latitude": 15.6093419,
"longitude": -90.5600285
      }
    },
    "Departamento": {
"identity": 71,
"labels": [
        "Departamento"
      ],
"properties": {
"elevation": 2333,
"name": "Quetzaltenango",
"creacion": "1845-09-16",
"extensionKM": 1948,
"latitude": 14.8143735,
"longitude": -91.5427484
      }
    }
  },
  {
    "Pais": {
"identity": 0,
"labels": [
        "pais"
      ],
"properties": {
"name": "Guatemala",
"latitude": 15.6093419,
"longitude": -90.5600285
      }
    },
    "Departamento": {
"identity": 68,
"labels": [
        "Departamento"
      ],
"properties": {
"elevation": 2495,
"name": "Totonicapan",
"creacion": "1825-11-04",
"extensionKM": 1061,
"latitude": 14.9118574,
"longitude": -91.3606075
      }
    }
  },
  {
    "Pais": {
"identity": 0,
"labels": [
        "pais"
      ],
"properties": {
"name": "Guatemala",
"latitude": 15.6093419,
"longitude": -90.5600285
      }
    },
    "Departamento": {
"identity": 65,
"labels": [
        "Departamento"
      ],
"properties": {
"elevation": 2113,
"name": "Solola",
"creacion": "1825-11-04",
"extensionKM": 1061,
"latitude": 14.7683472,
"longitude": -91.1863432
      }
    }
  },
  {
    "Pais": {
"identity": 0,
"labels": [
        "pais"
      ],
"properties": {
"name": "Guatemala",
"latitude": 15.6093419,
"longitude": -90.5600285
      }
    },
    "Departamento": {
"identity": 62,
"labels": [
        "Departamento"
      ],
"properties": {
"elevation": 893,
"name": "Santa Rosa",
"creacion": "1852-05-08",
"extensionKM": 2955,
"latitude": 14.147236,
"longitude": -90.35885
      }
    }
  },
  {
    "Pais": {
"identity": 0,
"labels": [
        "pais"
      ],
"properties": {
"name": "Guatemala",
"latitude": 15.6093419,
"longitude": -90.5600285
      }
    },
    "Departamento": {
"identity": 59,
"labels": [
        "Departamento"
      ],
"properties": {
"elevation": 347,
"name": "Escuintla",
"creacion": "1825-11-04",
"extensionKM": 4384,
"latitude": 14.305,
"longitude": -90.785
      }
    }
  },
  {
    "Pais": {
"identity": 0,
"labels": [
        "pais"
      ],
"properties": {
"name": "Guatemala",
"latitude": 15.6093419,
"longitude": -90.5600285
      }
    },
    "Departamento": {
"identity": 4,
"labels": [
        "Departamento"
      ],
"properties": {
"name": "Guatemala",
"altitud": 1499,
"creacion": "1825-11-04",
"extension": 2126,
"latitude": 14.6309713,
"longitude": -90.5154828
      }
    }
  },
  {
    "Pais": {
"identity": 0,
"labels": [
        "pais"
      ],
"properties": {
"name": "Guatemala",
"latitude": 15.6093419,
"longitude": -90.5600285
      }
    },
    "Departamento": {
"identity": 3,
"labels": [
        "Departamento"
      ],
"properties": {
"elevation": 2200,
"name": "Sacatepequez",
"creacion": "1825-11-04",
"extension": 465,
"latitude": 14.551615,
"longitude": -90.757284
      }
    }
  },
  {
    "Pais": {
"identity": 0,
"labels": [
        "pais"
      ],
"properties": {
"name": "Guatemala",
"latitude": 15.6093419,
"longitude": -90.5600285
      }
    },
    "Departamento": {
"identity": 2,
"labels": [
        "Departamento"
      ],
"properties": {
"elevation": 976,
"name": "Progreso",
"creacion": "1908-04-13",
"extension": 1922,
"latitude": 14.91588,
"longitude": -90.068105
      }
    }
  },
  {
    "Pais": {
"identity": 0,
"labels": [
        "pais"
      ],
"properties": {
"name": "Guatemala",
"latitude": 15.6093419,
"longitude": -90.5600285
      }
    },
    "Departamento": {
"identity": 49,
"labels": [
        "Departamento"
      ],
"properties": {
"elevation": 1800,
"name": "Chimaltenango",
"creacion": "1839-09-12",
"extensionKM": 1979,
"latitude": 14.6614594,
"longitude": -90.818912
      }
    }
  }
]